City ID,City,Cloudiness,Country,Date,Humidity,Lat,Lng,Max Temp,Wind Speed
0,Albany,100,US,1610986325,75,42.6001,-73.9662,37.0,7.43
1,Tuatapere,68,NZ,1610986558,81,-46.1333,167.6833,50.0,4.0
2,Hobart,75,AU,1610986472,46,-42.8794,147.3294,50.0,12.66
3,Adolfo López Mateos,0,MX,1610986559,28,28.4667,-107.3,48.99,1.01
4,Katsuura,2,JP,1610986458,48,35.1333,140.3,46.0,8.99
5,Mount Isa,33,AU,1610986561,31,-20.7333,139.5,77.0,8.93
6,Río Gallegos,100,AR,1610986561,50,-51.6226,-69.2181,58.64,21.27
7,Bengkulu,99,ID,1610986561,88,-3.8004,102.2655,76.06,6.71
8,Cayenne,75,GF,1610986349,62,4.9333,-52.3333,86.0,14.97
9,Jamestown,90,US,1610986562,86,42.097,-79.2353,32.0,8.05
10,Malokakhovka,98,UA,1610986563,93,46.7814,33.4479,13.95,6.67
11,Shīeli,98,KZ,1610986563,77,44.1667,66.75,37.38,7.85
12,São Félix do Xingu,96,BR,1610986563,80,-6.6447,-51.995,78.49,2.51
13,Thompson,90,CA,1610986512,84,55.7435,-97.8558,-9.4,2.89
14,Tasiilaq,84,GL,1610986564,50,65.6145,-37.6368,23.0,1.14
15,Rikitea,94,PF,1610986565,73,-23.1203,-134.9692,78.22,11.83
16,New Norfolk,67,AU,1610986566,55,-42.7826,147.0587,50.0,3.0
17,Ponta Delgada,75,PT,1610986566,88,37.7333,-25.6667,64.99,18.41
18,Khatanga,0,RU,1610986566,81,71.9667,102.5,-29.6,15.12
19,Longyearbyen,20,SJ,1610986310,67,78.2186,15.6401,17.6,26.46
20,Husavik,90,IS,1610986567,86,66.0449,-17.3389,33.8,20.71
21,Kaseda-shirakame,20,JP,1610986567,46,31.4167,130.3167,50.0,14.97
22,Meulaboh,100,ID,1610986399,79,4.1363,96.1285,79.07,3.11
23,Lompoc,0,US,1610986453,70,34.6391,-120.4579,55.99,4.61
24,Kangaatsiaq,88,GL,1610986569,88,68.3065,-53.4641,11.61,10.07
25,Torbay,40,CA,1610986569,75,47.6666,-52.7314,43.0,21.85
26,San Cristobal,40,VE,1610986570,65,7.7669,-72.225,82.4,11.5
27,Mutoko,100,ZW,1610986570,97,-17.397,32.2268,69.03,2.75
28,Castro,100,BR,1610986570,93,-24.7911,-50.0119,68.9,5.06
29,Richards Bay,41,ZA,1610986505,72,-28.783,32.0377,76.3,7.63
30,Acarí,59,PE,1610986571,46,-15.4311,-74.6158,82.65,9.93
31,Bozoum,33,CF,1610986572,12,6.3193,16.3799,92.03,7.0
32,Saskylakh,86,RU,1610986572,83,71.9167,114.0833,-33.0,4.99
33,Cabo San Lucas,1,MX,1610986506,40,22.8909,-109.9124,69.8,3.44
34,Shingū,20,JP,1610986573,78,33.7333,135.9833,41.72,14.25
35,Kapaa,40,US,1610986574,88,22.0752,-159.319,66.2,16.11
36,Nome,100,US,1610986574,85,64.5011,-165.4064,8.6,10.36
37,Nerchinskiy Zavod,68,RU,1610986575,80,51.3088,119.61,-28.75,4.36
38,Gagret,0,IN,1610986575,43,31.6667,76.0667,54.84,3.51
39,Yellowknife,90,CA,1610986403,85,62.456,-114.3525,5.0,5.64
40,Kars,75,TR,1610986576,86,40.602,43.095,24.8,14.97
41,Bambous Virieux,75,MU,1610986576,94,-20.3428,57.7575,78.8,11.5
42,Busselton,13,AU,1610986577,59,-33.65,115.3333,72.0,8.03
43,Altamont,1,US,1610986577,74,42.2068,-121.7372,33.01,0.98
44,Port Alfred,11,ZA,1610986577,81,-33.5906,26.891,71.01,8.01
45,Pahrump,20,US,1610986578,27,36.2083,-115.9839,55.0,1.01
46,Sanary-sur-Mer,6,FR,1610986578,50,43.1178,5.8001,53.01,6.4
47,Mataura,50,NZ,1610986579,81,-46.1927,168.8643,50.0,4.0
48,Soe,100,ID,1610986579,98,-9.8607,124.284,67.59,2.44
49,Vestmanna,90,FO,1610986580,93,62.1564,-7.1664,35.6,1.14
50,Constitución,0,CL,1610986581,44,-35.3333,-72.4167,72.21,5.06
51,Santa Rosa,90,PH,1610986433,78,14.3122,121.1114,79.0,1.14
52,Tena,40,EC,1610986581,74,-0.9833,-77.8167,84.2,2.3
53,Provideniya,98,RU,1610986582,86,64.3833,-173.3,-10.07,7.11
54,Vaini,20,TO,1610986582,94,-21.2,-175.2,75.2,3.44
55,Ati,12,TD,1610986583,12,13.2154,18.3353,87.35,8.61
56,Galle,100,LK,1610986583,84,6.0367,80.217,78.31,3.83
57,Cape Town,0,ZA,1610986583,60,-33.9258,18.4232,75.99,16.11
58,Khuzhir,88,RU,1610986584,90,53.1939,107.3397,14.43,5.59
59,Esso,100,RU,1610986584,92,55.9333,158.7,16.79,0.98
60,Lata,0,PT,1610986585,64,40.1629,-8.3327,60.01,3.0
61,Dzerzhinskoye,84,RU,1610986585,95,56.8344,95.2283,14.76,8.25
62,Cherskiy,70,RU,1610986586,81,68.75,161.3,-40.95,2.46
63,Gijang,0,KR,1610986586,34,35.2442,129.2139,30.2,6.91
64,Saint-François,90,FR,1610986352,75,46.4154,3.9054,42.8,3.44
65,Nikolskoye,75,RU,1610986588,93,59.7035,30.7861,24.8,4.47
66,Zhezkazgan,100,KZ,1610986588,92,47.8043,67.7144,16.65,8.68
67,Nanortalik,100,GL,1610986589,84,60.1432,-45.2371,28.74,3.71
68,East London,75,ZA,1610986589,73,-33.0153,27.9116,71.6,14.97
69,Bethel,90,US,1610986590,60,41.3712,-73.414,39.99,11.5
70,Bredasdorp,0,ZA,1610986590,57,-34.5322,20.0403,75.2,18.41
71,São João da Barra,0,BR,1610986590,43,-21.6403,-41.0511,89.6,16.11
72,Sangar,20,RU,1610986591,76,63.9242,127.4739,-51.93,2.84
73,Ozernovskiy,100,RU,1610986332,92,51.5,156.5167,19.56,37.0
74,Hermanus,0,ZA,1610986592,60,-34.4187,19.2345,79.0,7.0
75,Tautira,20,PF,1610986592,83,-17.7333,-149.15,75.2,2.3
76,Marfino,100,RU,1610986592,78,55.7028,37.3822,1.4,4.47
77,Hambantota,75,LK,1610986593,100,6.1241,81.1185,77.0,4.61
78,Omboué,54,GA,1610986593,75,-1.5746,9.2618,82.15,10.33
79,Punta Arenas,75,CL,1610986308,51,-53.15,-70.9167,57.2,21.85
80,Fort Morgan,75,US,1610986594,60,40.2503,-103.8,33.8,17.27
81,Båtsfjord,40,NO,1610986595,93,70.6345,29.7185,35.6,19.57
82,Cururupu,97,BR,1610986595,86,-1.8283,-44.8683,80.76,5.35
83,Sumbe,0,AO,1610986596,65,-11.2061,13.8437,84.2,4.61
84,Asău,90,RO,1610986597,79,46.4333,26.4,16.0,6.91
85,Costineşti,75,RO,1610986598,80,43.95,28.6333,26.01,3.44
86,Maturin,91,VE,1610986598,58,9.75,-63.1767,84.94,6.58
87,Caloundra,100,AU,1610986598,97,-26.8,153.1333,69.01,3.0
88,Lorengau,45,PG,1610986599,76,-2.0226,147.2712,82.85,9.69
89,Port Elizabeth,0,ZA,1610986600,68,-33.918,25.5701,71.6,17.27
90,Filingué,54,NE,1610986600,11,14.3521,3.3168,91.89,14.81
91,Oranjemund,3,NA,1610986600,74,-28.55,16.4333,70.0,13.13
92,Yulara,0,AU,1610986601,19,-25.2406,130.9889,75.2,8.05
93,Otofuke,100,JP,1610986601,96,42.9917,143.2003,14.99,1.88
94,Mar del Plata,0,AR,1610986601,36,-38.0023,-57.5575,82.4,14.97
95,Murygino,89,RU,1610986602,90,58.7383,49.4582,-9.63,3.38
96,Konakovo,50,RU,1610986602,92,56.7,36.7667,-2.92,2.84
97,Barrow,90,US,1610986603,71,71.2906,-156.7887,-0.4,16.11
98,Pho Chai,0,TH,1610986603,60,16.3283,103.7703,58.77,12.91
99,Saint-Joseph,40,RE,1610986603,78,-21.3667,55.6167,82.4,3.44
100,Turukhansk,100,RU,1610986604,85,65.8167,87.9833,-13.61,12.41
101,Ushuaia,75,AR,1610986604,71,-54.8,-68.3,50.0,11.5
102,Olafsvik,27,IS,1610986604,85,64.8945,-23.7142,34.47,15.19
103,Upington,20,ZA,1610986605,21,-28.4478,21.2561,95.0,9.22
104,Esperance,0,AU,1610986605,72,-33.8667,121.9,62.6,14.97
105,Namatanai,53,PG,1610986606,83,-3.6667,152.4333,79.52,8.1
106,Bodaybo,100,RU,1610986606,79,57.8506,114.1933,-25.56,1.66
107,Dikson,1,RU,1610986607,83,73.5069,80.5464,-19.55,21.12
108,Hilo,90,US,1610986607,83,19.7297,-155.09,68.0,4.61
109,Fort Nelson,1,CA,1610986607,48,58.8053,-122.7002,37.4,8.05
110,Ponta do Sol,64,PT,1610986608,60,32.6667,-17.1,61.0,3.0
111,Bluff,75,NZ,1610986608,81,-46.6,168.3333,50.0,4.0
112,Mount Gambier,90,AU,1610986609,94,-37.8333,140.7667,55.4,9.22
113,Butaritari,28,KI,1610986609,80,3.0707,172.7902,80.19,18.92
114,Afuá,80,BR,1610986609,71,-0.1567,-50.3867,84.87,5.77
115,Halifax,90,CA,1610986561,87,44.6453,-63.5724,41.0,18.41
116,Puerto Ayora,20,EC,1610986610,78,-0.7393,-90.3518,80.01,10.36
117,Ribeira Grande,75,PT,1610986611,88,38.5167,-28.7,62.6,20.71
118,Leh,5,IN,1610986611,68,34.1667,77.5833,15.35,3.09
119,Talnakh,100,RU,1610986611,89,69.4865,88.3972,-8.12,2.35
120,Pennāthur,4,IN,1610986612,82,12.25,79.2333,70.05,5.68
121,Booué,68,GA,1610986612,70,-0.0921,11.9385,84.83,2.95
122,Catió,12,GW,1610986613,16,11.2833,-15.25,94.33,8.88
123,Cocal,99,BR,1610986613,70,-28.6167,-49.35,74.77,6.22
124,Paphos,75,CY,1610986613,67,34.7667,32.4167,55.4,2.3
125,Sitka,90,US,1610986614,71,57.0531,-135.33,46.4,11.5
126,Saint George,1,US,1610986614,33,37.1041,-113.5841,39.2,4.61
127,Muyezerskiy,100,RU,1610986614,97,63.9333,31.65,18.46,8.39
128,Codrington,84,AU,1610986615,73,-38.2667,141.9667,57.36,13.31
129,Coffeyville,1,US,1610986615,56,37.0373,-95.6164,41.0,10.36
130,Saint-Philippe,40,RE,1610986616,78,-21.3585,55.7679,82.4,3.44
131,Ahipara,26,NZ,1610986616,84,-35.1667,173.1667,64.45,12.33
132,Uíge,20,AO,1610986616,51,-7.6087,15.0613,86.0,9.22
133,Puerto Peñasco,1,MX,1610986617,42,31.3167,-113.5333,42.8,9.33
134,Bandarbeyla,27,SO,1610986617,60,9.4942,50.8122,76.28,23.8
135,Nsanje,100,MW,1610986617,88,-16.92,35.262,81.12,3.31
136,Adrar,96,MR,1610986618,17,20.5022,-10.0711,72.81,16.15
137,Kas,100,TR,1610986618,72,36.2018,29.6377,45.52,8.12
138,Nouadhibou,34,MR,1610986619,21,20.931,-17.0347,78.8,14.97
139,Avarua,75,CK,1610986619,88,-21.2078,-159.775,77.0,2.3
140,Wewak,32,PG,1610986619,81,-3.5534,143.6268,79.92,2.3
141,Khandyga,71,RU,1610986620,62,62.6667,135.6,-55.75,0.22
142,Yatou,0,CN,1610986620,86,37.15,122.3833,22.06,10.0
143,Sur,0,OM,1610986621,65,22.5667,59.5289,69.39,2.42
144,Klaksvík,90,FO,1610986621,93,62.2266,-6.589,35.6,1.14
145,Tuktoyaktuk,75,CA,1610986621,84,69.4541,-133.0374,-2.2,14.97
146,Okha,43,RU,1610986622,83,53.5739,142.9478,-23.3,12.84
147,Stokmarknes,40,NO,1610986496,100,68.5646,14.9108,30.2,6.91
148,Hithadhoo,9,MV,1610986623,65,-0.6,73.0833,81.48,4.36
149,Laas,20,IT,1610986623,68,46.6166,10.7002,35.01,5.75
150,Oyama,20,JP,1610986623,86,36.3,139.8,45.0,6.91
151,Saint Paul Harbor,90,US,1610986624,87,57.79,-152.4072,42.8,17.27
152,Rio Grande,40,BR,1610986327,53,-32.035,-52.0986,78.01,17.27
153,Montebello,1,US,1610986625,61,34.0095,-118.1053,55.4,1.97
154,Wanning,0,CN,1610986625,73,18.8003,110.3967,57.51,7.4
155,Russell,1,US,1610986626,43,32.3502,-85.1999,51.01,4.61
156,Monrovia,40,LR,1610986626,62,6.3005,-10.7969,89.6,11.5
157,Gizo Government Station,100,SB,1610986626,76,-8.103,156.8419,83.1,8.72
158,Tual,100,ID,1610986627,80,-5.6667,132.75,83.43,17.09
159,Molteno,0,ZA,1610986627,20,-31.3968,26.3625,80.28,6.78
160,Riyadh,0,SA,1610986446,20,24.6877,46.7219,71.6,11.5
161,Hong Kong,43,HK,1610986455,67,22.2855,114.1577,57.99,8.59
162,Doctor Arroyo,65,MX,1610986628,62,23.6667,-100.1833,52.07,5.08
163,Shivrājpur,0,IN,1610986628,60,22.4167,73.65,73.4,4.61
164,Bara,99,NG,1610986629,22,10.3744,10.7288,91.4,8.05
165,Thinadhoo,0,MV,1610986629,61,0.5333,72.9333,81.64,0.6
166,Mezen',100,RU,1610986630,94,65.8522,44.24,6.66,11.48
167,Chui,4,UY,1610986630,49,-33.6971,-53.4616,75.72,9.89
168,Narsaq,40,GL,1610986630,53,60.9167,-46.05,21.2,3.44
169,Makakilo City,75,US,1610986631,83,21.3469,-158.0858,71.6,5.75
170,Vestmannaeyjar,0,IS,1610986631,75,63.4427,-20.2734,37.4,21.85
171,Kulhudhuffushi,1,MV,1610986631,78,6.6221,73.07,81.64,12.8
172,Geraldton,75,AU,1610986632,65,-28.7667,114.6,78.8,4.61
173,Lubao,75,PH,1610986633,69,14.9167,120.55,78.8,6.91
174,Norman Wells,20,CA,1610986633,84,65.282,-126.8329,-5.8,3.44
175,Galveston,20,US,1610986522,72,29.3669,-94.9669,63.0,10.36
176,Batken,61,KG,1610986634,86,39.8333,71.0,26.78,12.06
177,Salina,1,US,1610986553,42,38.8403,-97.6114,45.0,10.36
178,Ilulissat,40,GL,1610986634,57,69.2167,-51.1,15.8,2.3
179,Flinders,15,AU,1610986635,82,-34.5833,150.8552,68.0,1.01
180,Lázaro Cárdenas,80,MX,1610986635,57,17.9583,-102.2,80.96,2.91
181,Tiksi,100,RU,1610986636,87,71.6872,128.8694,-25.11,7.02
182,Kirkland Lake,0,CA,1610986637,66,48.1446,-80.0377,5.0,4.07
183,Severo-Kuril'sk,93,RU,1610986637,93,50.6789,156.125,19.15,37.8
184,Abbeville,100,FR,1610986638,83,50.1,1.8333,44.01,12.82
185,Liwale,97,TZ,1610986638,87,-9.7667,37.9333,75.27,3.22
186,Fortuna,1,US,1610986638,100,40.5982,-124.1573,39.2,10.36
187,Whitehorse,90,CA,1610986639,69,60.7161,-135.0538,30.2,19.57
188,Carnarvon,48,AU,1610986639,83,-24.8667,113.6333,82.4,5.75
189,Mae Hong Son,8,TH,1610986629,67,19.3003,97.9685,64.83,2.59
190,Kirakira,97,SB,1610986640,80,-10.4544,161.9205,80.65,5.68
191,Wiarton,75,CA,1610986641,68,44.7407,-81.1332,26.6,4.61
192,Sistranda,20,NO,1610986641,86,63.7256,8.834,30.2,13.8
193,Ratne,25,UA,1610986642,92,51.6683,24.5303,3.4,3.47
194,Koumac,26,NC,1610986642,81,-20.5667,164.2833,79.81,3.6
195,Tomar do Geru,23,BR,1610986642,36,-11.3733,-37.8406,90.5,12.73
196,Qaanaaq,95,GL,1610986643,77,77.484,-69.3632,1.72,6.17
197,Deputatsky,97,RU,1610986643,84,69.3,139.9,-39.8,2.55
198,Dunedin,51,NZ,1610986644,83,-45.8742,170.5036,53.01,5.01
199,Coquimbo,40,CL,1610986644,77,-29.9533,-71.3436,62.6,14.97
200,Nānākuli,75,US,1610986644,83,21.3906,-158.1547,71.01,5.75
201,Ambajogai,11,IN,1610986604,47,18.7333,76.3833,75.78,7.11
202,Chunoyar,99,RU,1610986645,94,57.4467,97.3217,18.16,11.3
203,Lamas,40,PE,1610986646,43,-6.4167,-76.5333,93.2,12.66
204,Acapulco de Juárez,1,MX,1610986476,69,16.8634,-99.8901,80.6,2.3
205,Walldürn,99,DE,1610986647,76,49.5833,9.3667,37.0,1.99
206,Kaolinovo,94,BG,1610986647,52,43.6167,27.1167,28.0,4.0
207,Pevek,23,RU,1610986648,85,69.7008,170.3133,-31.23,5.7
208,Zvishavane,100,ZW,1610986648,95,-20.3267,30.0665,65.97,11.12
209,Saint-Augustin,99,CA,1610986648,93,51.226,-58.6502,33.13,21.72
210,Niksar,100,TR,1610986649,93,40.5917,36.9517,29.98,4.81
211,Guerrero Negro,0,MX,1610986398,45,27.9769,-114.0611,64.15,4.5
212,Port Hedland,36,AU,1610986514,35,-20.3167,118.5667,91.4,5.75
213,Vigía del Fuerte,63,CO,1610986650,69,6.5789,-76.8863,84.47,4.94
214,Barcelos,0,PT,1610986651,71,41.5388,-8.6151,57.99,4.61
215,Castlemaine,41,AU,1610986651,48,-37.0667,144.2167,55.99,7.76
216,Olmos,100,PE,1610986652,70,-5.9847,-79.7453,79.0,1.99
217,Tadpatri,0,IN,1610986652,65,14.9167,78.0167,74.75,10.65
218,Lebu,0,CL,1610986652,63,-37.6167,-73.65,63.12,21.43
219,Paraopeba,75,BR,1610986653,47,-19.2757,-44.4033,84.2,5.75
220,Clyde River,90,CA,1610986653,85,70.4692,-68.5914,5.0,10.36
221,Umeå,90,SE,1610986654,85,63.8284,20.2597,8.6,4.61
222,Caibarién,40,CU,1610986570,73,22.5206,-79.4669,75.2,9.22
223,Upernavik,100,GL,1610986655,96,72.7868,-56.1549,16.68,6.67
224,Poum,48,NC,1610986656,79,-20.2333,164.0167,82.17,10.49
225,Harsány,99,HU,1610986656,94,47.9667,20.75,21.9,3.13
226,Lockhart,1,US,1610986656,51,28.6194,-81.4426,64.0,9.22
227,Hofn,75,IS,1610986657,60,64.2539,-15.2082,39.2,25.32
228,Lakes Entrance,84,AU,1610986657,80,-37.8811,147.981,59.0,1.99
229,Kamwenge,99,UG,1610986658,37,0.1866,30.4539,78.08,3.69
230,Channel-Port aux Basques,100,CA,1610986658,83,47.5702,-59.1367,35.89,20.07
231,Colares,0,PT,1610986658,63,38.7992,-9.4469,60.8,5.75
232,Alofi,40,NU,1610986659,94,-19.0595,-169.9187,73.4,10.69
233,Zyryanka,91,RU,1610986659,81,65.75,150.85,-39.24,5.97
234,Taltal,3,CL,1610986660,61,-25.4,-70.4833,70.68,6.49
235,Tazovsky,100,RU,1610986660,90,67.4667,78.7,-12.6,9.48
236,North Battleford,90,CA,1610986661,86,52.7834,-108.2847,28.4,12.66
237,Taoudenni,98,ML,1610986661,19,22.6783,-3.9836,73.06,15.88
238,Vardø,20,NO,1610986662,80,70.3705,31.1107,28.4,19.57
239,Bud,65,US,1610986662,93,39.447,-86.1758,30.0,11.03
240,Mattru,35,SL,1610986662,19,7.6244,-11.8332,92.93,3.53
241,Hokitika,91,NZ,1610986663,77,-42.7167,170.9667,57.49,10.04
242,Margate,100,GB,1610986663,78,51.3813,1.3862,43.0,1.01
243,Ileza,98,RU,1610986664,95,61.0533,43.9002,3.15,4.12
244,Pisco,0,PE,1610986651,73,-13.7,-76.2167,73.0,10.36
245,Wiltz,100,LU,1610986664,69,49.9689,5.9319,37.99,11.68
246,Pareora,67,NZ,1610986665,97,-44.4871,171.2132,53.01,7.94
247,Nelson Bay,0,AU,1610986665,88,-32.7167,152.15,69.01,6.91
248,Souillac,75,MU,1610986666,94,-20.5167,57.5167,78.8,11.5
249,Wote,100,KE,1610986630,89,-1.7808,37.6288,67.42,4.94
250,Rāwah,0,IQ,1610986667,50,34.4816,41.9093,54.9,2.53
251,Arraial do Cabo,0,BR,1610986668,48,-22.9661,-42.0278,91.4,19.57
252,Kibala,0,TD,1610986668,10,9.1104,18.3463,98.6,11.5
253,Luocheng,0,CN,1610986669,67,29.3848,104.0286,43.45,0.36
254,Plácido de Castro,100,BR,1610986669,92,-10.3353,-67.1856,79.97,4.16
255,Chihuahua,1,MX,1610986424,25,28.5,-106.0,50.0,3.44
256,Santa Isabel Rio Negro,17,BR,1610986670,56,-0.4139,-65.0192,88.83,6.06
257,Vytegra,95,RU,1610986670,97,61.0064,36.4481,17.02,5.21
258,Jalu,0,LY,1610986671,43,29.0331,21.5482,58.17,10.76
259,Arica,0,CL,1610986482,50,-18.475,-70.3042,77.0,12.66
260,Labuan,20,MY,1610986672,100,5.2767,115.2417,77.0,14.85
261,Agüimes,20,ES,1610986672,63,27.9054,-15.4461,70.0,5.75
262,Healesville,60,AU,1610986672,91,-37.65,145.5167,55.99,4.56
263,Kyshtovka,14,RU,1610986673,89,56.555,76.6271,-9.99,8.48
264,Sítio Novo do Tocantins,40,BR,1610986673,66,-5.5183,-47.4611,87.8,5.75
265,Dali,46,CN,1610986674,77,25.7,100.1833,43.48,3.76
266,Mahébourg,75,MU,1610986562,94,-20.4081,57.7,78.8,11.5
267,Saldanha,27,ZA,1610986675,37,-33.0117,17.9442,84.2,10.36
268,Atuona,83,PF,1610986675,76,-9.8,-139.0333,78.12,19.33
269,Kurya,100,RU,1610986675,95,51.6003,82.2888,18.64,10.69
270,Jieshi,90,CN,1610986676,73,22.8134,115.8257,55.49,16.75
271,Sibolga,60,ID,1610986677,81,1.7427,98.7792,76.93,3.71
272,San Felipe,65,VE,1610986677,62,10.3399,-68.7425,81.61,5.5
273,San Quintín,0,MX,1610986678,48,30.4833,-115.95,63.93,3.31
274,Kalininsk,100,RU,1610986678,94,51.5,44.4758,3.74,4.32
275,George Town,20,MY,1610986679,73,5.4112,100.3354,80.6,3.44
276,Tura,3,IN,1610986679,65,25.5198,90.2201,60.96,2.1
277,Langenlois,100,AT,1610986680,87,48.4904,15.6521,35.01,8.14
278,Bereket,81,TM,1610986464,48,39.2446,55.5154,51.73,0.96
279,Malakanagiri,0,IN,1610986680,55,18.35,81.9,66.25,1.32
280,Abu Dhabi,0,AE,1610986681,68,24.4667,54.3667,71.6,5.75
281,Faya,0,SA,1610986681,82,18.3851,42.4509,64.4,4.61
282,Beloha,87,MG,1610986682,80,-25.1667,45.05,79.74,11.36
283,Mayachnyy,100,RU,1610986682,94,52.6839,55.685,2.44,5.73
284,Paamiut,100,GL,1610986683,84,61.994,-49.6678,27.59,4.63
285,Māngrol,0,IN,1610986683,42,21.1167,70.1167,71.55,11.83
286,Lakatoro,74,VU,1610986683,79,-16.0999,167.4164,81.57,7.76
287,Campbellsville,90,US,1610986684,93,37.3434,-85.3419,34.0,5.75
288,Carira,73,BR,1610986684,41,-10.3608,-37.7011,87.94,12.26
289,Bambari,78,CF,1610986685,11,5.768,20.6757,97.3,3.69
290,Talara,40,PE,1610986685,61,-4.5772,-81.2719,80.6,12.66
291,Daru,97,PG,1610986686,86,-9.0763,143.2092,79.86,2.39
292,Deming,1,US,1610986686,19,32.2687,-107.7586,41.0,3.44
293,Kunduz,76,AF,1610986687,42,36.729,68.857,52.7,2.01
294,Vung Tau,90,VN,1610986687,75,10.346,107.0843,74.07,13.58
295,Chokurdakh,14,RU,1610986688,85,70.6333,147.9167,-32.91,1.28
296,Krasnosel'kup,100,RU,1610986688,89,65.7,82.4667,-13.68,3.83
297,Yumen,4,CN,1610986688,78,40.2833,97.2,16.14,19.71
298,Kathmandu,75,NP,1610986566,71,27.7167,85.3167,55.4,4.61
299,Fendou,0,CN,1610986689,82,46.65,124.8667,-12.53,7.23
300,Biak,100,ID,1610986690,83,-0.9131,122.8766,77.86,2.48
301,Ledyard Center,40,US,1610986690,61,41.4398,-72.0142,43.0,17.27
302,Marawi,100,PH,1610986690,92,7.9986,124.2928,75.0,5.01
303,Viedma,0,AR,1610986691,39,-40.8135,-62.9967,82.0,16.67
304,Hasaki,20,JP,1610986691,56,35.7333,140.8333,42.8,13.8
305,Vallenar,0,CL,1610986557,26,-28.5708,-70.7581,85.12,8.97
306,São Filipe,100,CV,1610986692,61,14.8961,-24.4956,75.9,11.39
307,Silver City,1,US,1610986693,10,32.7701,-108.2803,50.0,4.61
308,Honiara,88,SB,1610986637,79,-9.4333,159.95,77.95,5.06
309,Polazna,0,RU,1610986693,84,58.2946,56.4055,-7.6,4.47
310,Kruisfontein,0,ZA,1610986694,65,-34.0033,24.7314,73.99,10.0
311,Loandjili,20,CG,1610986694,74,-4.7561,11.8578,86.0,12.66
312,Krasnozerskoye,49,RU,1610986695,92,53.9828,79.2374,-5.78,7.14
313,Formosa do Rio Preto,98,BR,1610986695,40,-11.0483,-45.1931,88.81,4.72
314,Alyangula,90,AU,1610986695,100,-13.8483,136.4192,78.8,12.28
315,Mossamedes,75,AO,1610986696,61,-15.1961,12.1522,78.8,12.66
316,Punta Alta,0,AR,1610986696,20,-38.8759,-62.0736,89.67,13.91
317,Tsimmerbude,40,RU,1610986696,73,54.675,20.1347,19.4,11.18
318,Zaraza,42,VE,1610986697,49,9.3503,-65.3245,87.26,7.45
319,Loa Janan,100,ID,1610986697,95,-0.583,117.095,75.42,2.82
320,Bandar-e Lengeh,0,IR,1610986698,78,26.5579,54.8807,71.6,9.22
321,Tessalit,34,ML,1610986699,12,20.1986,1.0114,83.57,5.21
322,Puerto Asís,0,CO,1610986699,62,0.5133,-76.5007,86.0,3.44
323,Turan,75,VN,1610986700,77,16.0678,108.2208,62.6,3.44
324,Puri,0,IN,1610986512,77,19.8,85.85,68.0,7.72
325,Port-Gentil,40,GA,1610986700,70,-0.7193,8.7815,86.0,18.41
326,Kaabong,68,UG,1610986701,46,3.4836,34.1492,74.86,9.62
327,Dingle,100,PH,1610986701,95,10.9995,122.6711,73.69,8.37
328,Turbat,0,PK,1610986702,71,26.0023,63.044,67.41,6.33
329,Altamira,75,BR,1610986703,89,-3.2033,-52.2064,78.8,5.75
330,Piranshahr,74,IR,1610986703,87,36.701,45.1413,34.86,8.66
331,Saint Anthony,90,US,1610986619,68,45.0205,-93.218,21.2,11.5
332,Hoquiam,90,US,1610986704,93,46.9809,-123.8893,39.0,3.8
333,Baghdad,0,IQ,1610986595,51,33.3406,44.4009,57.2,5.64
334,Bourail,74,NC,1610986704,88,-21.5667,165.4833,76.73,4.56
335,Lavrentiya,100,RU,1610986705,88,65.5833,-171.0,-12.33,10.0
336,Sedona,1,US,1610986604,14,34.8697,-111.761,46.4,6.91
337,Bilibino,0,RU,1610986706,77,68.0546,166.4372,-30.6,1.3
338,Matara,95,LK,1610986706,88,5.9485,80.5353,76.24,8.7
339,Ambon City,70,ID,1610986706,93,-3.6954,128.1814,81.0,6.4
340,Tortolì,20,IT,1610986707,66,39.9256,9.6572,51.8,8.05
341,Balad,0,IQ,1610986709,47,34.0164,44.1453,57.79,3.56
342,Paciran,100,ID,1610986710,87,-6.8767,112.3761,78.28,13.38
343,Cidreira,69,BR,1610986710,58,-30.1811,-50.2056,76.37,10.92
344,Sørland,75,NO,1610986710,80,67.667,12.6934,33.8,9.22
345,Kumul,53,CN,1610986711,76,42.8,93.45,16.16,3.29
346,Callaguip,75,PH,1610986711,69,18.0714,120.4867,77.0,3.44
347,Airai,100,TL,1610986712,100,-8.9266,125.4092,61.59,1.61
348,Taksimo,100,RU,1610986712,75,56.3444,114.8794,-30.37,1.41
349,Bilma,99,NE,1610986713,18,18.6853,12.9164,75.69,5.64
350,Champasak,0,LA,1610986713,76,14.75,106.0,59.56,1.59
351,Carutapera,91,BR,1610986713,76,-1.195,-46.02,82.56,7.96
352,Hazaribagh,0,IN,1610986714,41,23.9833,85.35,54.25,2.19
353,Morehead,90,US,1610986714,65,37.2711,-87.1764,39.99,4.61
354,Cockburn Town,40,TC,1610986715,65,21.4612,-71.1419,80.6,5.75
355,Glenluce,100,GB,1610986715,92,54.8798,-4.8084,43.0,1.99
356,San Patricio,75,US,1610986715,94,28.017,-97.5169,69.8,13.8
357,Aykhal,40,RU,1610986716,75,66.0,111.5,-46.28,3.49
358,Taseyevo,97,RU,1610986716,95,57.2169,94.8978,15.58,9.73
359,Iqaluit,90,CA,1610986584,85,63.7506,-68.5145,-0.4,3.44
360,Fairfield,90,US,1610986717,60,41.2668,-73.3162,44.01,11.5
361,Meadow Lake,40,US,1610986717,26,34.8014,-106.5436,45.0,2.51
362,Bokovskaya,97,RU,1610986718,95,49.229,41.8306,7.68,1.79
363,Gobabis,82,NA,1610986718,22,-22.45,18.9667,85.14,10.78
364,Romitan,0,UZ,1610986718,61,39.9343,64.3814,46.4,6.91
365,Udachny,56,RU,1610986719,75,66.4167,112.4,-49.41,3.65
366,Camabatela,99,AO,1610986719,59,-8.1881,15.375,74.37,4.36
367,Muros,0,ES,1610986720,79,42.7762,-9.0603,62.01,3.0
368,Coyhaique,90,CL,1610986708,63,-45.5752,-72.0662,62.6,3.44
369,Quatre Cocos,75,MU,1610986720,94,-20.2078,57.7625,78.8,11.5
370,Nakhon Phanom,0,TH,1610986721,65,17.3333,104.4167,53.87,7.52
371,Bāglung,53,NP,1610986721,56,28.2719,83.5898,53.42,2.84
372,Beira,75,MZ,1610986721,74,-19.8436,34.8389,84.2,8.05
373,Uthal,35,PK,1610986722,41,25.8072,66.6219,65.23,5.61
374,Pagėgiai,97,LT,1610986723,94,55.1381,21.9089,8.62,6.4
375,Anacortes,90,US,1610986684,81,48.5126,-122.6127,44.6,6.91
376,Avera,1,US,1610986723,43,33.194,-82.5271,50.0,10.36
377,Ballina,40,AU,1610986724,88,-28.8667,153.5667,68.0,3.44
378,Kargasok,71,RU,1610986724,89,59.0556,80.8572,-12.57,10.13
379,Mackay,90,AU,1610986725,83,-21.15,149.2,77.0,5.75
380,Frontera,0,MX,1610986715,22,26.9333,-101.45,64.0,1.54
381,Hamilton,90,US,1610986490,74,39.1834,-84.5333,30.99,11.5
382,Forsytheganj,100,BY,1610986726,92,52.6333,29.7333,0.28,4.81
383,Korla,59,CN,1610986726,81,41.7597,86.1469,18.48,3.56
384,Erenhot,21,CN,1610986727,90,43.6475,111.9767,3.24,4.34
385,Fuxin,53,CN,1610986727,77,42.0156,121.6589,-1.19,0.94
386,Zheleznodorozhnyy,40,RU,1610986481,77,55.7503,38.0042,-0.4,2.24
387,Karatuzskoye,100,RU,1610986728,94,53.6072,92.8667,23.97,10.74
388,Gumlā,0,IN,1610986728,34,23.05,84.55,60.01,3.27
389,Tiarei,20,PF,1610986729,83,-17.5333,-149.3333,75.2,2.3
390,Kaitangata,72,NZ,1610986729,88,-46.2817,169.8464,50.0,1.99
391,Acaraú,85,BR,1610986730,59,-2.8856,-40.12,86.79,15.9
392,Pacific Grove,1,US,1610986435,54,36.6177,-121.9166,59.0,6.91
393,Bathsheba,40,BB,1610986730,70,13.2167,-59.5167,84.2,24.16
394,College,75,US,1610986731,79,64.8569,-147.8028,28.4,5.75
395,Nizwá,0,OM,1610986731,30,22.9333,57.5333,67.24,4.34
396,Opuwo,74,NA,1610986731,35,-18.0607,13.84,83.73,5.99
397,Haines Junction,100,CA,1610986732,74,60.7522,-137.5108,30.2,4.61
398,Bosaso,76,SO,1610986732,67,11.2842,49.1816,75.58,5.12
399,Motygino,100,RU,1610986733,96,58.1831,94.7592,15.6,10.36
400,Luleå,75,SE,1610986733,85,65.5842,22.1547,1.4,3.74
401,Saryagash,75,KZ,1610986733,41,41.4511,69.1701,55.4,6.91
402,Rome,90,US,1610986734,86,43.2128,-75.4557,30.99,10.36
403,Ostrovnoy,100,RU,1610986734,97,68.0531,39.5131,24.78,14.45
404,Beringovskiy,40,RU,1610986734,86,63.05,179.3167,-18.17,10.98
405,Caravelas,5,BR,1610986735,59,-17.7125,-39.2481,84.58,9.06
406,Lopukhiv,77,UA,1610986735,91,48.3653,23.9638,8.1,2.04
407,Brownwood,90,US,1610986736,76,31.7093,-98.9912,46.4,5.75
408,Kabanjahe,75,ID,1610986736,100,3.1001,98.4908,75.2,8.05
409,Kimbe,54,PG,1610986736,87,-5.5502,150.1429,77.86,1.97
410,Jinxiang,0,CN,1610986737,59,27.4327,120.6062,46.72,5.39
411,Port Lincoln,23,AU,1610986738,83,-34.7333,135.8667,59.85,15.3
412,Red Bluff,1,US,1610986739,14,40.1785,-122.2358,60.8,19.57
413,Vao,78,NC,1610986739,86,-22.6667,167.4833,77.43,13.65
414,Costa Rica,100,BR,1610986605,86,-23.4167,-54.65,73.94,5.73
415,Christchurch,26,NZ,1610986740,50,-43.5333,172.6333,57.0,3.44
416,‘Āhuimanu,90,US,1610986741,83,21.4447,-157.8378,71.6,10.36
417,Yenagoa,50,NG,1610986741,56,4.9247,6.2642,88.2,6.29
418,Zabid,25,YE,1610986741,75,14.1951,43.3152,77.16,11.92
419,Vila Franca do Campo,75,PT,1610986742,88,37.7167,-25.4333,64.99,18.41
420,Brainerd,90,US,1610986590,73,46.358,-94.2008,15.8,6.91
421,Vikhorevka,75,RU,1610986743,85,56.1201,101.1636,12.2,8.95
422,Isla Mujeres,75,MX,1610986743,68,21.2311,-86.731,73.99,9.22
423,San Julián,10,MX,1610986744,34,21.0167,-102.1667,58.84,4.94
424,Jiangyou,0,CN,1610986744,73,31.7667,104.7167,38.52,1.57
425,Waliso,58,ET,1610986745,33,8.5333,37.9833,65.59,12.68
426,Bitung,20,ID,1610986745,94,1.4451,125.1824,77.0,2.3
427,Kysyl-Syr,93,RU,1610986746,77,63.8986,122.7617,-47.33,5.3
428,San Francisco Menéndez,0,SV,1610986746,53,13.8431,-90.0158,78.8,4.61
429,Pārvatipuram,3,IN,1610986747,76,18.7833,83.4333,66.25,2.39
430,Ancud,75,CL,1610986747,64,-41.8697,-73.8203,73.0,4.61
431,Bowen,90,AU,1610986748,94,-20.0167,148.2333,73.4,4.61
432,Christiana,47,ZA,1610986748,17,-27.914,25.1611,88.77,5.12
433,Kerema,95,PG,1610986748,84,-7.9631,145.7785,79.52,4.32
434,Antofagasta,0,CL,1610986749,64,-23.65,-70.4,73.99,13.8
435,Paluan,100,PH,1610986749,76,13.416,120.4623,79.52,18.81
436,Umluj,64,SA,1610986750,54,25.0213,37.2685,70.3,17.2
437,Imeni Zhelyabova,85,RU,1610986750,95,58.9544,36.5956,6.24,3.24
438,Laguna de Duero,0,ES,1610986750,81,41.5815,-4.7233,41.0,3.44
439,Hervey Bay,65,AU,1610986751,89,-25.2986,152.8535,72.0,15.99
440,Vostok,100,RU,1610986751,90,46.4856,135.8833,-13.34,3.24
441,Conde,75,BR,1610986752,62,-7.2597,-34.9075,86.0,13.8
442,Isangel,20,VU,1610986752,89,-19.55,169.2667,78.8,3.71
443,Asunción,20,PY,1610986508,51,-25.3007,-57.6359,82.4,12.66
444,Xingyi,24,CN,1610986753,90,24.1877,102.817,39.27,2.48
445,Batemans Bay,48,AU,1610986754,91,-35.7167,150.1833,64.99,1.99
446,Ranong,44,TH,1610986754,82,9.9658,98.6348,73.47,7.72
447,Timbiquí,88,CO,1610986755,91,2.7717,-77.6654,77.9,8.5
448,Brownsville,20,US,1610986755,88,25.9018,-97.4975,69.01,12.66
449,San Luis,0,AR,1610986756,18,-33.295,-66.3356,84.61,5.97
450,Mooresville,0,US,1610986756,58,35.5849,-80.8101,45.0,1.01
451,Samarai,99,PG,1610986757,75,-10.6167,150.6667,84.7,14.94
452,Pesaro,27,IT,1610986757,76,43.9036,12.8903,42.01,1.01
453,Salalah,0,OM,1610986626,53,17.0151,54.0924,75.2,1.14
454,Ratnagiri,0,IN,1610986758,71,16.9833,73.3,78.93,9.53
455,The Valley,40,AI,1610986483,65,18.217,-63.0578,82.4,14.97
456,Kabinda,78,CD,1610986759,86,-6.1333,24.4833,74.26,3.83
457,Portland,90,US,1610986675,93,45.5234,-122.6762,43.0,3.44
458,Iralaya,70,HN,1610986760,81,15.0,-83.2333,80.04,12.91
459,Pochutla,1,MX,1610986761,61,15.7432,-96.4661,82.99,3.47
460,Yerbogachën,100,RU,1610986761,82,61.2767,108.0108,-26.97,6.11
461,Departamento de Maldonado,20,UY,1610986526,68,-34.6667,-54.9167,71.6,11.5
462,Yangi Marg`ilon,68,UZ,1610986762,56,40.4272,71.7189,41.0,9.22
463,Lomas de Sargentillo,90,EC,1610986762,94,-1.8833,-80.0833,75.2,5.75
464,Inuvik,19,CA,1610986763,84,68.3499,-133.7218,-5.8,6.91
465,Tornio,90,FI,1610986763,93,65.8481,24.1466,19.4,2.3
466,Periyanegamam,20,IN,1610986763,64,10.7333,77.1,73.4,2.3
467,Kavieng,89,PG,1610986764,76,-2.5744,150.7967,82.49,15.55
468,Iwanai,100,JP,1610986512,93,42.9744,140.5089,17.49,1.39
469,Upata,93,VE,1610986764,67,8.0086,-62.3989,84.0,3.0
470,Santa Rosalía,0,MX,1610986765,27,27.3167,-112.2833,68.59,3.33
471,Heide,100,DE,1610986766,97,54.2,9.1,41.0,8.01
472,Sunrise Manor,1,US,1610986679,34,36.2111,-115.0731,59.0,4.61
473,Roald,75,NO,1610986766,56,62.5833,6.1333,41.0,8.05
474,Benghazi,11,LY,1610986767,70,32.1167,20.0667,60.84,25.61
475,Porto Velho,75,BR,1610986616,74,-8.7619,-63.9039,84.2,2.3
476,Lagoa,100,PT,1610986767,83,39.05,-27.9833,61.59,27.89
477,Presidencia Roque Sáenz Peña,0,AR,1610986768,31,-26.7852,-60.4388,84.0,3.0
478,Tak,0,TH,1610986691,72,16.5833,98.8333,58.78,3.06
479,Chipinge,100,ZW,1610986769,100,-20.1883,32.6236,65.62,2.64
480,Oriximiná,89,BR,1610986769,76,-1.7656,-55.8661,83.61,2.86
481,Esfarāyen,0,IR,1610986769,45,37.0765,57.5101,39.2,5.93
482,Skibbereen,90,IE,1610986770,100,51.55,-9.2667,48.2,10.36
483,Vila Velha,20,BR,1610986770,58,-20.3297,-40.2925,87.8,17.27
484,Zaporizhia,90,UA,1610986770,78,47.8167,35.1833,3.2,4.47
485,Vanimo,98,PG,1610986771,83,-2.6741,141.3028,78.01,3.56
486,Manta,75,EC,1610986771,78,-0.95,-80.7333,80.6,6.91
487,Scarborough,86,GB,1610986771,86,54.2797,-0.4044,41.0,4.0
488,Srednekolymsk,67,RU,1610986772,81,67.45,153.6833,-42.63,2.35
489,Aklavik,69,CA,1610986772,84,68.2191,-135.0107,-5.8,6.91
490,Walvis Bay,17,NA,1610986773,79,-22.9575,14.5053,71.01,17.96
491,Cap Malheureux,63,MU,1610986773,91,-19.9842,57.6142,78.01,5.99
492,Opotiki,5,NZ,1610986774,98,-38.0833,177.2833,52.0,6.87
493,Faanui,2,PF,1610986774,75,-16.4833,-151.75,80.78,14.56
494,Leningradskiy,100,RU,1610986774,84,69.3833,178.4167,-22.95,7.96
495,Camacupa,100,AO,1610986775,69,-12.0167,17.4833,75.25,3.89
496,Kokkola,40,FI,1610986775,93,63.8385,23.1307,27.0,10.36
497,Codajás,77,BR,1610986776,82,-3.8367,-62.0569,83.93,3.51
498,Stornoway,20,GB,1610986776,87,58.2093,-6.3865,39.2,10.36
499,Mińsk Mazowiecki,95,PL,1610986776,77,52.1794,21.5725,6.01,3.89
500,Bubaque,7,GW,1610986777,50,11.2833,-15.8333,79.11,8.57
501,Egvekinot,26,RU,1610986777,84,66.3167,-179.1667,-21.55,11.65
502,Saint-Paul,75,RE,1610986778,74,-21.0096,55.2707,80.6,12.66
503,Santa Cruz de la Sierra,75,BO,1610986630,57,-17.8,-63.1667,77.0,16.11
504,Malanje,61,AO,1610986779,77,-9.5402,16.341,75.58,3.85
505,Dafeng,2,CN,1610986779,39,23.4517,108.5881,53.69,1.48
506,Campo Verde,75,BR,1610986722,88,-20.4167,-54.0667,75.2,11.5
507,Maningrida,100,AU,1610986780,92,-12.0667,134.2667,77.74,5.41
508,Prado,12,BR,1610986765,62,-17.3411,-39.2208,82.96,9.78
509,Lüderitz,8,NA,1610986781,67,-26.6481,15.1594,70.75,14.52
510,Martinsville,90,US,1610986781,60,36.6915,-79.8725,39.99,4.61
511,Charlestown,1,AU,1610986484,89,-32.95,151.6667,73.0,7.87
512,Pokosnoye,100,RU,1610986782,96,55.5258,101.0536,16.02,8.5
513,Taitung City,96,TW,1610986782,75,22.7583,121.1444,60.71,13.33
514,Half Moon Bay,1,US,1610986783,31,37.4636,-122.4286,62.6,7.67
515,Vanavara,100,RU,1610986783,89,60.34,102.2797,-14.49,6.93
516,Amberley,90,US,1610986784,74,39.2048,-84.428,30.99,11.5
517,Puerto Escondido,1,MX,1610986784,74,15.85,-97.0667,80.6,4.61
518,Penzance,90,GB,1610986784,100,50.1186,-5.5371,50.0,14.97
519,Kushima,20,JP,1610986759,46,31.4583,131.2333,50.0,14.97
520,Pangnirtung,90,CA,1610986785,77,66.1451,-65.7125,-4.0,3.44
521,Nanzhang,0,CN,1610986786,58,31.7765,111.8386,44.4,3.85
522,Cairns,75,AU,1610986578,83,-16.9167,145.7667,78.8,4.61
523,Mlonggo,100,ID,1610986766,85,-6.5333,110.7,78.39,13.33
524,Camacha,20,PT,1610986787,55,33.0833,-16.3333,62.6,3.44
525,Praia da Vitória,40,PT,1610986787,82,38.7333,-27.0667,62.6,18.14
526,Edd,13,ER,1610986787,76,13.9297,41.6925,75.87,8.16
527,Dukat,100,RU,1610986788,83,62.55,155.55,-34.06,6.31
528,Zapolyarnyy,40,RU,1610986788,86,69.4154,30.8136,26.6,12.66
529,Batagay-Alyta,98,RU,1610986788,75,67.8006,130.4114,-36.49,0.58
530,Port Macquarie,41,AU,1610986789,94,-31.4333,152.9167,69.8,5.75
531,Te Anau,84,NZ,1610986789,88,-45.4167,167.7167,47.89,8.12
532,Genhe,30,CN,1610986790,77,50.7833,121.5167,-29.87,3.24
533,Jati,0,PK,1610986790,22,24.3539,68.2671,66.85,11.3
534,Zeya,0,RU,1610986791,76,53.75,127.2667,-27.99,1.03
535,Ko Samui,100,TH,1610986792,69,9.5357,99.9357,78.55,12.82
536,Magaria,27,NE,1610986792,13,12.9983,8.9099,86.34,14.54
537,Beyneu,36,KZ,1610986793,71,45.3167,55.2,39.78,11.61
538,Aripuanã,87,BR,1610986670,89,-9.1667,-60.6333,80.73,1.72
539,Kuruman,62,ZA,1610986793,25,-27.4524,23.4325,93.0,4.88
540,Sayhāt,0,SA,1610986794,30,26.4852,50.0405,66.2,12.77
541,Yar-Sale,100,RU,1610986794,87,66.8333,70.8333,-15.92,18.66
542,Karasburg,0,NA,1610986795,12,-28.0167,18.75,93.63,10.98
543,Salinópolis,94,BR,1610986795,71,-0.6136,-47.3561,84.54,11.72
544,Gerāsh,0,IR,1610986795,31,27.6652,54.1371,62.6,11.5
545,Xinan,5,CN,1610986796,73,26.72,119.8556,44.89,5.23
546,Plettenberg Bay,0,ZA,1610986797,75,-34.0527,23.3716,70.02,16.93
547,Port Augusta,75,AU,1610986797,82,-32.5,137.7667,62.6,14.97
548,Novikovo,98,RU,1610986798,94,51.1537,37.8879,4.42,3.65
549,Burē,72,ET,1610986798,28,10.7,37.0667,65.34,2.77
550,Dalbandin,0,PK,1610986799,29,28.8947,64.4101,61.18,2.08
551,Gubkinskiy,94,RU,1610986800,89,64.434,76.5026,-14.46,9.95
552,Langenburg,90,DE,1610986801,93,49.2544,9.8458,33.8,9.22
553,Burayevo,52,RU,1610986802,89,55.8407,55.4083,-13.38,1.72
554,Viet Tri,0,VN,1610986806,62,21.3019,105.4308,55.4,8.05
555,Otjimbingwe,78,NA,1610986806,27,-22.35,16.1333,87.75,19.04
556,Kenai,90,US,1610986807,75,60.5544,-151.2583,35.6,25.32
557,Payson,75,US,1610986620,93,40.0444,-111.7321,34.0,3.44
558,Petatlán,40,MX,1610986809,74,17.5167,-101.2667,82.4,2.19
559,Kavaratti,0,IN,1610986809,71,10.5669,72.642,82.31,3.69
560,Livadiya,29,RU,1610986809,85,42.8692,132.6764,-3.23,23.15
561,Klyuchi,74,RU,1610986810,93,52.2667,79.1667,2.75,7.4
562,Broome,90,US,1610986810,86,42.2506,-75.833,33.01,8.05
563,Port Moresby,40,PG,1610986658,94,-9.4431,147.1797,78.8,3.44
564,Tshela,99,CD,1610986811,81,-4.9833,12.9333,82.44,0.85
565,Puerto Quijarro,100,BO,1610986812,86,-17.7833,-57.7667,67.46,6.71
566,Hobyo,33,SO,1610986812,71,5.3505,48.5268,77.59,19.24
567,Corn Island,54,NI,1610986813,75,12.1694,-83.0418,80.37,9.51
568,Tōbetsu,100,JP,1610986813,85,43.2169,141.5169,16.0,3.36
569,Marabu,40,MY,1610986813,100,4.4148,114.0089,78.01,4.61
570,Mopipi,87,BW,1610986814,58,-21.1833,24.8833,81.41,19.33
571,Kuril'sk,99,RU,1610986814,86,45.2333,147.8833,22.77,11.07
572,Anadyr,20,RU,1610986815,75,64.75,177.4833,-25.01,8.95
573,Hualmay,100,PE,1610986815,70,-11.0964,-77.6139,74.68,9.1
574,Senador José Porfírio,59,BR,1610986816,87,-2.5908,-51.9542,80.29,5.73
575,Itarema,94,BR,1610986816,60,-2.9248,-39.9167,86.58,15.43
576,Salé,0,MA,1610986816,51,34.0389,-6.8166,62.6,4.34
577,Vilhena,75,BR,1610986606,88,-12.7406,-60.1458,73.4,5.75
578,Tateyama,3,JP,1610986818,49,34.9833,139.8667,46.0,8.99
579,Andenes,75,NO,1610986818,100,69.3143,16.1194,33.01,2.3
